stop_id,stop_name,stop_lat,stop_lon
i-o835,Bubnjarci,45.6442334657,15.3513141103
i-o450,Osijek Donji grad,45.5522315055,18.7212676508
i-o676,Martijanec,46.261419312,16.5325778384
i-o974,Ražine,43.7054132878,15.923201031
i-o455,Osijek Dravski Most,45.5587547338,18.7036370234
i-o653,Đulovac,45.6643288236,17.4312638855
i-o642,Mihaljevci,45.3793233212,17.6720672318
i-o547,Okučani,45.2523615675,17.2062904278
i-o1031,Novi Jankovci,45.2465789173,18.9007894039
i-o574,Odra,45.7338960484,16.0116932696
i-o738,Turčin,46.2540486729,16.3587592991
i-o405,Mirkovci,45.2788254907,18.8560710101
i-o575,Zagreb Klara,45.7559442538,15.9813005823
i-o740,Doljan,46.2443375973,16.33637493
i-o498,Sisak Caprag,45.458077153,16.3905162494
i-o977,Borut,45.3043263497,14.052268776
i-o657,Vukovje,45.6196857942,17.2722651062
i-o1000,Ročko polje,45.3738620651,14.0799030898
i-o409,Stari Mikanovci,45.266579259,18.5396620803
i-o1015,Kopanica-Beravci,45.1490109563,18.4144959005
i-o416,Bršadin-Lipovača,45.3677219279,18.91652651
i-o952,Labin Dalmatinski,43.5837773092,16.2331330771
i-o660,Sirač,45.529923946,17.2409793668
i-o877,Plaški,45.0783340603,15.3680749673
i-o951,Prgomet,43.610294745,16.2261750756
i-o790,Draganići,45.5694188445,15.6093394054
i-o447,Brijest,45.5170201171,18.6720632299
i-o847,Delnice,45.3915011564,14.7974259247
i-o514,Sesvete,45.8248451177,16.109907637
i-o858,Ogulin,45.266043194,15.2315249436
i-o452,Osijek OLT,45.5541115303,18.7055093998
i-o651,Pepelana,45.7393706527,17.4912959019
i-o410,Strizivojna-Vrpolje,45.2272836842,18.4136503026
i-o884,Šušnjevo Selo,45.2103291786,15.2832194633
i-o832,Zaluka,45.6246723367,15.4633274243
i-o662,Pakrac,45.4473208501,17.1954973996
i-o650,Bučje-Koprivnica,45.247243831,17.7576186244
i-o550,Slobodnica,45.1769993723,17.9271623266
i-o429,Drenovci,44.9198304655,18.8589120064
i-o938,Siverić,43.8742024228,16.1966948584
i-o568,Greda,45.5305665295,16.2930349102
i-o595,Majurec,46.0267154325,16.590189162
i-o425,Privlaka,45.1983598622,18.8484507785
i-o421,Erdut,45.5073862033,19.0491230008
i-o453,Standard,45.5453014983,18.7421494903
i-o736,Novi Marof,46.1769078653,16.338333136
i-o487,Jasenovac,45.2761497927,16.9106168451
i-o552,Stari Slatnik,45.1702495585,17.8420350171
i-o616,Žabjak,45.9269429032,16.7320263931
i-o640,Blacko-Jakšić,45.3356930828,17.7572836032
i-o592,Lepavina,46.0979276617,16.6850278438
i-o496,Brđani Krajiški,45.383018,16.494682
i-o968,Dabar,43.6727287945,16.0106746003
i-o663,Pakrac Grad,45.4371242136,17.1887679921
i-o588,Novigrad Podravski,46.0845700213,16.9549836297
i-o402,Slakovci,45.2151434534,18.9462944199
i-o586,Đurđevac,46.0273446232,17.0652308
i-o692,Vrapče,45.8122886632,15.896561914
i-o768,Mala Subotica,46.3772423309,16.5348479978
i-o998,Buzet,45.4262660498,13.985151093
i-o953,Sadine,43.5634479702,16.2986679446
i-o1006,Metković,43.0566839477,17.6468796194
i-o725,Hum-Lug,46.0208648595,15.9263840529
i-o868,Jurdani,45.39246,14.30899
i-o680,Našice,45.496495368,18.1243664001
i-o566,Sisak,45.4921177533,16.3734442674
i-o617,Hrsovo,45.9362584329,16.6878510015
i-o629,Remetinec Križevački,45.92404,16.5382
i-o718,Novi Dvori,45.879684399,15.8131122299
i-o437,Županja,45.0821946297,18.6964363206
i-o724,Zabok,46.0239188531,15.9020859007
i-o996,Čabrunići Selo,45.0308174086,13.8648680069
i-o766,Dunjkovec,46.3860703446,16.3713812595
i-o619,Stare Plavnice,45.8994132565,16.8099568048
i-o1016,Sikirevci,45.126819435,18.4262757342
i-o950,Preslo,43.6295938832,16.2139194371
i-o463,Vladislavci,45.4754766706,18.5586672168
i-o527,Ilova,45.4507047388,16.8343164361
i-o869,Jušići,45.38051,14.31685
i-o966,Dujmovača,43.5275144,16.4818404
i-o611,Sveti Ivan Žabno,45.9450277994,16.6209571241
i-o856,Meja,45.3065563379,14.595743086
i-o899,Lovinac,44.3760504807,15.6638102496
i-o627,Sirova Katalena,45.9592075842,17.0682700513
i-o936,Kosovo,43.9497185207,16.2096243023
i-o782,Remetinec,45.7663628321,15.9455841815
i-o1017,Slavonski Šamac,45.0744519057,18.4731903046
i-o553,Kuti,45.1636365957,17.8129114586
i-o830,Zorkovac,45.5912404034,15.530200251
i-o789,Lazina,45.6064844006,15.6252578501
i-o731,Konjšćina,46.0505453752,16.1789635292
i-o515,Čulinec,45.8208442451,16.0636177663
i-o783,Hrvatski Leskovac,45.7444224695,15.8920997848
i-o831,Ozalj,45.6119886746,15.4823463132
i-o979,Novaki,45.2589534538,13.9894588294
i-o747,Sveti Križ Začretje,46.0768549171,15.9032014125
i-o853,Zlobin,45.2883238873,14.6505790448
i-o859,Sušak-Pećine,45.3208285277,14.4637778478
i-o643,Trenkovo,45.4009292395,17.6626122757
i-o534,Novoselec,45.6492678335,16.5299033689
i-o694,Podsused Stajalište,45.8156037931,15.8358497923
i-o583,Pitomača,45.9425676863,17.2295479022
i-o594,Vojakovački Kloštar,46.0492047954,16.6212338812
i-o571,Turopolje,45.6477243656,16.1312918015
i-o716,Harmica,45.8915931891,15.6856861768
i-o477,Niza,45.5427803054,18.2345543483
i-o591,Sokolovac,46.1010415468,16.7118856959
i-o763,Golubovec,46.173741433,15.9835027463
i-o969,Primorsko Vrpolje,43.6784529648,15.9819828143
i-o683,Feričanci,45.5381901786,17.9809208556
i-o569,Lekenik,45.5844552009,16.2187551207
i-o679,Novakovec,46.2642302623,16.4965774651
i-o778,Vratišinec,46.4731521436,16.4534651563
i-o797,Zvečaj,45.3957528029,15.430957368
i-o454,Osijek Luka,45.5366370037,18.7676922413
i-o465,Hrastovac Vučki,45.4432829688,18.5399076253
i-o537,Ivanić Grad,45.7073500225,16.3977812014
i-o865,Šapjane,45.4766495695,14.2443824579
i-o744,Donja Stubica,45.982948514,15.966021088
i-o488,Višnjica,45.2565121397,16.8803347416
i-o834,Brlog Grad,45.6380393047,15.3831646488
i-o464,Dopsin,45.4630733916,18.5502628672
i-o580,Virovitica grad,45.8268433515,17.3860479402
i-o597,Repinec,45.9496598595,16.5052044268
i-o733,Budinšćina,46.1282011691,16.2137231239
i-o983,Žminj,45.1462943313,13.8555215728
i-o493,Staza,45.3286037699,16.6037067355
i-o560,Staro Topolje,45.1828945929,18.2471860213
i-o630,Haganj,45.92671,16.58652
i-o513,Sesvetski Kraljevec,45.8107253531,16.1688806102
i-o980,Pazin,45.2397665338,13.9461517797
i-o682,Đurđenovac,45.5374044048,18.0380619772
i-o954,Kaštel Stari,43.5673880121,16.3448138294
i-o516,Trnava,45.8184452691,16.0494026724
i-o438,Rokovci,45.2412996228,18.7315669272
i-o684,Zdenci-Orahovica,45.5685962207,17.929177415
i-o775,Čakovec,46.3844204914,16.420487545
i-o829,Mahično,45.5530021896,15.5313248522
i-o469,Budrovci,45.2610362748,18.4207361309
i-o625,Paulovac,45.9384422827,16.9743766052
i-o436,Gradište,45.1443976235,18.6999020808
i-o719,Pojatno,45.9094017902,15.8081771095
i-o581,Špišić Bukovica,45.8458456193,17.2987682832
i-o972,Šibenik,43.729996119,15.8979455676
i-o462,Čepin,45.5205539646,18.5778860845
i-o772,Kotoriba,46.3537588492,16.808433699
i-o785,Zdenčina,45.6836991878,15.7500537288
i-o779,Mursko Središće,46.5082887642,16.4464180298
i-o448,Bijelo Brdo,45.5131286077,18.8589956957
i-o401,Orolik,45.2066536967,18.9756144976
i-o1014,Ploče,43.0485917,17.4334095
i-o791,Mavračići,45.6972431268,15.7983332626
i-o935,Kaldrma,43.9726330042,16.2058856394
i-o727,Bedekovčina,46.0415259064,15.9978427366
i-o652,Pivnica,45.7081121632,17.4831938679
i-o698,Zaprešić Savska,45.854990863,15.7947729789
i-o524,Stara Subocka,45.3641343387,16.9114369639
i-o615,Bjelovar,45.8940714232,16.8446658723
i-o850,Fužine,45.3003485956,14.7173638082
i-o700,Zagreb Zapadni Kolodvor,45.8091245968,15.9542125497
i-o757,Vidovec,46.2648623974,16.252038973
i-o664,Lipik,45.4095693642,17.1599743992
i-o852,Drivenik,45.2672074303,14.6913051834
i-o490,Živaja,45.2470328128,16.7276060812
i-o675,Ludbreg,46.2562603471,16.6120212076
i-o403,Sremske Laze,45.2271967501,18.9277928422
i-o478,Našička Breznica,45.5315086976,18.1907468493
i-o851,Lič,45.2815748245,14.7150989258
i-o876,Latin,45.1121616534,15.3623816137
i-o609,Poljanka,45.9747655326,16.5447189466
i-o417,Vukovar-Borovo naselje,45.3734192625,18.9552340439
i-o750,Žutnica,46.1821226472,15.8536367943
i-o558,Perkovci,45.2085555357,18.3495588786
i-o446,Antunovac,45.4835931019,18.6701419477
i-o549,Rajić,45.2959750533,17.1025147233
i-o562,Zadubravlje,45.1685435369,18.1535453951
i-o798,Gornji Zvečaj,45.3759445799,15.4123797382
i-o585,Kalinovac,46.0128483098,17.095933003
i-o948,Bakovići,43.6415938567,16.1885406486
i-o860,Rijeka,45.3300874969,14.4302604034
i-o559,Andrijevci,45.1907748793,18.2928904688
i-o765,Macinec,46.38754872,16.3249475494
i-o970,Primorski Sveti Juraj,43.6963384733,15.9468064448
i-o695,Zaprešić,45.8444036946,15.8131100427
i-o985,Smoljanci,45.0917764439,13.8444887438
i-o946,Perković,43.6755816098,16.1177946074
i-o491,Šaš,45.2850235203,16.6684406594
i-o701,Brdovec,45.863822797,15.7664473263
i-o678,Zbelava,46.2814052167,16.3990064576
i-o849,Vrata,45.3176533215,14.7320842312
i-o762,Lepoglava,46.2131120765,16.0434605652
i-o556,Lužani-Malino,45.1705049896,17.7168227438
i-o601,Božjakovina,45.8222591134,16.3071395197
i-o769,Čehovec,46.3703133895,16.6164357117
i-o618,Škrinjari,45.9370546994,16.5932670383
i-o971,Mandalina,43.7200648108,15.9069358888
i-o582,Vukosavljevica,45.8749307223,17.2538053278
i-o784,Horvati,45.7137207163,15.8174557503
i-o796,Belavići,45.4222203081,15.4790694219
i-o644,Velika,45.4389359699,17.6654643586
i-o654,Koreničani,45.6541847662,17.3580805972
i-o999,Roč,45.4003666843,14.038876151
i-o751,Đurmanec,46.1937818519,15.8431762668
i-o492,Papići,45.3078983831,16.6344821584
i-o577,Pčelić,45.7800882208,17.5255854441
i-o563,Donja Vrba,45.1635935738,18.1214624064
i-o628,Lubena,45.9236,16.5141
i-o732,Hrašćina-Trgovišće,46.1055433277,16.1996543314
i-o994,Heki,45.2253328356,13.8943926303
i-o739,Špičkovina,46.0317300443,15.9703413731
i-o557,Nova Kapela-Batrina,45.1898264923,17.6502620684
i-o728,Poznanovec,46.0496968324,16.0295498458
i-o631,Našice Grad,45.4874379224,18.0882118717
i-o614,Klokočevac,45.9101124226,16.7751966026
i-o745,Gornja Stubica,45.9832738312,16.0041448595
i-o427,Spačva,45.0412436382,18.9040967516
i-o944,Cera,43.7048172684,16.1768882729
i-o947,Primorski Dolac,43.6366902827,16.1588202602
i-o432,Vinkovci Bolnica,45.2926029035,18.822599076
i-o800,Donje Dubrave,45.3119703799,15.3625990794
i-o483,Petrove Gore,45.5556595585,18.6505404339
i-o441,Ostrovo,45.3356746,18.7774832524
i-o758,Cerje Tužno,46.2597138994,16.2187238442
i-o913,Knin,44.0366469582,16.1983566454
i-o523,Zagreb Glavni kolodvor,45.8044511799,15.9788116194
i-o937,Tepljuh,43.8933701298,16.2103415265
i-o672,Kunovec-Subotica,46.1937309537,16.7565964104
i-o787,Jastrebarsko,45.6572023616,15.647834497
i-o433,Vinkovačko Novo Selo,45.2900316322,18.7814734127
i-o753,Dukovec,46.0960892789,15.8960476387
i-o470,Lipovac-Koritna,45.4215223368,18.5236580906
i-o674,Čukovec,46.2359524999,16.6659782271
i-o749,Krapina,46.1594733404,15.8721073781
i-o960,Kaštel Gomilica,43.5534973434,16.4001883132
i-o742,Oroslavje,46.0015189683,15.9289342379
i-o889,Ličko Lešće,44.7731550267,15.3586151169
i-o756,Pristava Krapinska,46.13714,15.877612
i-o540,Dugo Selo,45.8013583056,16.2347324102
i-o975,Lupoglav,45.355538928,14.1054264621
i-o430,Gunja,44.8827790838,18.8443335118
i-o875,Vojnovac,45.1499836658,15.3342075156
i-o848,Lokve,45.3566454524,14.7722343188
i-o668,Poljana,45.4630460063,16.978955409
i-o519,Sesvetska Sopnica,45.82486,16.08744
i-o792,Karlovac Centar,45.4880952841,15.5492424181
i-o981,Heki stajalište,45.2155302579,13.8871831997
i-o799,Generalski Stol,45.3434140617,15.3765261432
i-o726,Dubrava Zabočka,46.02093388,15.9526407207
i-o685,Čačinci,45.5986217891,17.8689672625
i-o624,Mišulinovac,45.9347418741,16.9449073885
i-o870,Rukavac,45.37003,14.30394
i-o990,Galižana,44.9334649803,13.871456348
i-o639,Knežci,45.3368322108,17.897878798
i-o637,Ciglenik,45.3341361865,17.9170585677
i-o658,Daruvar,45.5888556511,17.2264113901
i-o1001,Nugla,45.4122949321,14.0243499348
i-o992,Šijana,44.8884825226,13.8660852887
i-o720,Kupljenovo,45.9328378222,15.8161691352
i-o793,Karlovac,45.500120524,15.5449150841
i-o480,Višnjevac,45.5614222239,18.6198483365
i-o473,Bizovac,45.5871337927,18.4530093809
i-o959,Kaštel Kambelovac,43.5554943002,16.3857133941
i-o579,Virovitica,45.8251167678,17.3985939595
i-o397,Ilača,45.1734239076,19.0896647126
i-o645,Novoselci,45.3238565949,17.7797389751
i-o636,Latinovac,45.3369676882,17.9567504902
i-o958,Donji Dolac,43.6517843175,16.1266359708
i-o578,Suhopolje,45.7940430278,17.4868844257
i-o602,Gradec,45.914537,16.485064
i-o408,Vođinci,45.2696813929,18.6137668509
i-o735,Mađarevo,46.1695575562,16.3098357194
i-o494,Cerovljani,45.2226027374,16.772983308
i-o991,Pula,44.8797722933,13.8470969327
i-o495,Sunja,45.355506806,16.5504937205
i-o734,Podrute,46.1486641229,16.2626571277
i-o984,Kanfanar,45.1171465397,13.8367383224
i-o892,Perušić,44.6480392155,15.3887981635
i-o987,Čabrunići,45.041567213,13.8659781387
i-o517,Maksimir,45.8140787699,16.023745024
i-o599,Vrbovec,45.8736124604,16.4103867517
i-o538,Prečec stajalište,45.7597304066,16.3506222303
i-o871,Opatija-Matulji,45.3645935927,14.3210136895
i-o993,Krajcar Brijeg,45.160054846,13.862619562
i-o846,Zalesina,45.3980282531,14.8577481373
i-o648,Ratkovica,45.2305499322,17.7314692069
i-o543,Staro Petrovo Selo,45.222117259,17.5259230987
i-o564,Slavonski Brod,45.1636245438,18.0111812712
i-o1030,Đeletovci stajalište,45.1941680177,19.0186293247
i-o965,Split Predgrađe,43.5221211067,16.4552617291
i-o603,Koprivnica,46.1654838664,16.8168149566
i-o489,Hrvatska Dubica,45.2216705276,16.8061753082
i-o561,Garčin,45.1734844312,18.1859733697
i-o584,Kloštar,45.9814445778,17.1392721981
i-o546,Dragalić,45.2525655745,17.2882176683
i-o499,Hrastovac,45.3114520975,16.5465365722
i-o539,Ostrna,45.7941134492,16.2711154023
i-o872,Krnjevo,45.33832,14.39976
i-o655,Maslenjača,45.6425249782,17.2960453013
i-o688,Slatina,45.7055719172,17.7062646458
i-o439,Vukovar,45.3624196834,18.9868485492
i-o482,Frigis - Osijek,45.5584467759,18.635722211
i-o721,Luka,45.9536898809,15.8211034174
i-o854,Plase,45.2834653853,14.6291002186
i-o873,Oštarije-Ravnice,45.2187980044,15.2774303173
i-o596,Križevci,46.0062652062,16.5434616759
i-o525,Lipovljani,45.3867794884,16.8823781469
i-o481,Višnjevac IPK,45.5663694476,18.6066081534
i-o443,Markušica-Antin,45.3813557798,18.7336382905
i-o843,Žrnovac,45.449977,14.937467
i-o941,Sedramić,43.7952201129,16.1587879524
i-o696,Kustošija,45.8106281373,15.9268870664
i-o536,Deanovec,45.6894670459,16.4599625271
i-o476,Koška,45.5415174467,18.2953762328
i-o956,Solin,43.5371670288,16.4709656749
i-o665,Dobrovac,45.4186320448,17.1259417219
i-o576,Buzin,45.7434100911,15.9984317731
i-o457,Čeminac,45.685868343,18.6553501211
i-o837,Ogulinski Hreljin,45.2960355035,15.1781838115
i-o467,Viškovci,45.3463861382,18.4265249782
i-o435,Cerna,45.1942316418,18.6991043489
i-o982,Sveti Petar u šumi,45.1850864141,13.8672206179
i-o894,Gospić,44.5361701871,15.3935933752
i-o622,Grginac Novi,45.9138711943,16.9083714145
i-o803,Kukača,45.2340421079,15.3333368349
i-o667,Brezine-Bujavica,45.4447974841,17.0342245405
i-o659,Bijela,45.57481,17.26075
i-o412,Vinkovci,45.300398403,18.8028085306
i-o475,Normanci,45.5573315563,18.3664905562
i-o955,Kaštel Sućurac,43.5489192081,16.4305239192
i-o589,Bregi,46.1266952633,16.8919901575
i-o723,Veliko Trgovišće,45.994659345,15.8468804468
i-o474,Cret,45.5735933595,18.409764217
i-o646,Pleternica,45.2867976163,17.8098557406
i-o635,Čaglin,45.3483831251,17.9900422085
i-o761,Kuljevčica,46.2280609659,16.0935196057
i-o903,Gračac,44.3003606464,15.8221481828
i-o399,Vinkovački Banovci,45.185788958,19.0472762987
i-o661,Badljevina,45.5029328742,17.2084549359
i-o986,Savićenta,45.0658221069,13.8587409582
i-o697,Gajnice,45.8135855446,15.8728285771
i-o479,Jelisavac,45.523392332,18.1548170924
i-o857,Škrljevo,45.3245358259,14.5390171732
i-o420,Dalj,45.5004930351,18.9672473444
i-o638,Zarilac,45.334311966,17.8764941142
i-o967,Ripište,43.669615091,16.0517918542
i-o526,Banova Jaruga,45.4457145263,16.8761823035
i-o398,Šidski Banovci,45.1800512537,19.0669548483
i-o590,Mučna Reka,46.1230936903,16.7604719379
i-o767,Čakovec-Buzovec,46.3837975075,16.4458545283
i-o414,Nuštar Stajalište,45.3363670811,18.8413317129
i-o942,Planjane,43.766793792,16.1835007209
i-o691,Cabuna,45.7581311026,17.5813823354
i-o396,Tovarnik,45.1554771736,19.1485553951
i-o978,Cerovlje,45.2765883348,14.0138066101
i-o567,Stupno,45.5022182215,16.3320122974
i-o471,Josipovac,45.5741580826,18.5900606196
i-o788,Domagović,45.6332623281,15.632589488
i-o529,Repušnica,45.4891840746,16.729116774
i-o445,Ernestinovo,45.4451009529,18.6676181071
i-o845,Kupjak,45.4001459223,14.8904886963
i-o883,Vrhovine,44.8489088295,15.4270664727
i-o530,Moslavačka Gračenica,45.5140189054,16.689202529
i-o690,Podravska Bistrica,45.7427199368,17.608969617
i-o989,Vodnjan,44.9667073055,13.8560733427
i-o587,Virje,46.0685571682,17.0044631744
i-o743,Stubičke Toplice,45.9749009072,15.9414216546
i-o449,Sarvaš,45.52083517,18.834368494
i-o535,Širinec,45.6713886394,16.490881058
i-o555,Oriovac,45.1612629492,17.7536739114
i-o532,Popovača,45.5592216191,16.6235216888
i-o770,Donji Kraljevec,46.3678614875,16.6451042879
i-o840,Vrbovsko,45.3726775384,15.0714847258
i-o497,Blinjski Kut,45.4157621442,16.4576623609
i-o669,Međurić,45.445477094,16.9111386127
i-o795,Duga Resa,45.4489564881,15.4985853769
i-o545,Nova Gradiška,45.2533584422,17.3792715066
i-o434,Andrijaševci,45.2300143755,18.7305206475
i-o641,Požega,45.3375042221,17.683260824
i-o737,Krušljevec,46.2249373302,16.3214623396
i-o502,Hrvatska Kostajnica,45.2353354722,16.5274294214
i-o945,Koprno,43.6898050549,16.1484921749
i-o686,Mikleuš,45.6167919415,17.8122461509
i-o572,Mraclin,45.6687558623,16.102145008
i-o472,Samatovci,45.5907846148,18.5025741387
i-o705,Sutla,45.8861215968,15.6950718844
i-o485,Osijek,45.5527370155,18.6834082547
i-o541,Novska,45.3268875768,16.9767282712
i-o839,Gomirje,45.342814329,15.1281227439
i-o458,Beli Manastir,45.7656755942,18.5961379164
i-o670,Potočani-Katinac,45.6501047754,17.3930592626
i-o623,Veliko Trojstvo,45.9321537468,16.9249901629
i-o748,Velika Ves,46.1150378711,15.8876965341
i-o704,Laduč,45.878250513,15.7203497269
i-o573,Velika Gorica,45.7085965002,16.0469387306
i-o484,Vodovod,45.5523506011,18.6681700751
i-o503,Volinja,45.2024132147,16.4861284609
i-o681,Velimirovac,45.5125347989,18.0950524521
i-o833,Kamanje,45.6453285875,15.4084391475
i-o786,Desinec,45.6730280576,15.7088712224
i-o671,Škodinovac,45.6348802687,17.3171024326
i-o542,Vrbova,45.2096733711,17.5831319872
i-o468,Đakovo,45.3136468325,18.421791942
i-o943,Unešić,43.7414823347,16.1814945967
i-o771,Donji Mihaljevec,46.3610933876,16.7238577184
i-o841,Moravice,45.4230051556,15.0161696611
i-o500,Graboštani,45.2804833542,16.5415177584
i-o805,Košare,45.2206049272,15.328849792
i-o802,Tounj,45.2506272046,15.3202446067
i-o570,Pešćenica,45.6145266466,16.1772302449
i-o804,Oštarije,45.234389955,15.2962805733
i-o741,Varaždin,46.3056022735,16.346725625
i-o730,Donji Lipovec,46.0479020713,16.1356665803
i-o801,Gornje Dubrave,45.2789739992,15.3074711624
i-o593,Carevdar,46.0654728333,16.6471036127
i-o442,Gaboš,45.3540353937,18.7431914652
i-o842,Brod Moravice,45.4649238425,14.9612177497
i-o940,Žitnić,43.8318033853,16.1457808994
i-o533,Ludina,45.6005568378,16.5696341146
i-o610,Brezovljani,45.9511813943,16.5679107956
i-o428,Vrbanja,44.9825039321,18.8851393794
i-o976,Hum u Istri,45.34383803,14.0729758572
i-o995,Vodnjan stajalište,44.9607166145,13.8557337023
i-o612,Cirkvena,45.940274984,16.6591302246
i-o988,Juršići,45.0250046932,13.8651610847
i-o939,Drniš,43.8637257472,16.1818519805
i-o649,Dragovci,45.2145591401,17.7063880901
i-o729,Zlatar Bistrica,46.0441446078,16.0813273553
i-o777,Novo Selo Rok,46.4296938969,16.4564559168
i-o528,Kutina,45.4748505749,16.7744892249
i-o702,Savski Marof,45.8720767976,15.7399963722
i-o621,Grginac,45.9093679926,16.8931100073
i-o426,Otok,45.1456359114,18.8719050573
i-o722,Žeinci,45.9763936742,15.8450427487
i-o656,Donja Vrijeska,45.6465184733,17.2725869328
i-o874,Josipdol,45.1973621588,15.2890915114
i-o647,Sulkovci,45.2590270269,17.7760218325
i-o444,Laslovo-Korođ,45.4144633138,18.7073214317
i-o844,Skrad,45.4253963086,14.902817548
i-o885,Lički Podhum,45.1326406018,15.3544637004
i-o755,Doliće,46.1718143963,15.8633103542
i-o867,Permani,45.41224,14.30317
i-o613,Rovišće,45.9320337469,16.7186714185
i-o794,Mrzlo Polje,45.4664500776,15.5359171467
i-o689,Sladojevci,45.7268859758,17.6388105463
i-o759,Stažnjevec,46.2417418206,16.174123427
i-o760,Ivanec,46.2314066573,16.1244049077
i-o752,Hromec,46.2068689139,15.80798734
i-o554,Brodski Stupnik,45.1605598346,17.79520272
i-o501,Majur,45.2573559332,16.5279788337
i-o666,Kukunjevac,45.4350811974,17.0828061193
i-o531,Voloder,45.5375742604,16.6579028571
i-o551,Sibinj,45.1809170789,17.9045374929
i-o746,Štrucljevo,46.0564878215,15.9117484291
i-o407,Ivankovo,45.2784122464,18.6674795808
i-o964,Split,43.5047301042,16.4429578016
i-o456,Darda,45.6338714258,18.6992656805
i-o544,Zapolje,45.2355921521,17.4628865981
i-o687,Nova Bukovica,45.662570601,17.7773111707
i-o673,Rasinja,46.2058966856,16.720662492
i-o677,Jalžabet,46.268477908,16.4717226132
